[
  {
    "code": "HAN",
    "city": "Hà Nội",
    "name": "Sân bay quốc tế Nội Bài (Noi Bai International Airport)",
    "latitude": "21.2212",
    "longitude": "105.8055"
  },
  {
    "code": "SGN",
    "city": "Hồ Chí Minh",
    "name": "Sân bay quốc tế Tân Sơn Nhất (Tan Son Nhat International Airport)",
    "latitude": "10.8188",
    "longitude": "106.6519"
  },
  {
    "code": "DAD",
    "city": "Đà Nẵng",
    "name": "Sân bay quốc tế Đà Nẵng (Da Nang International Airport)",
    "latitude": "16.0439",
    "longitude": "108.199"
  },
  {
    "code": "CXR",
    "city": "Nha Trang",
    "name": "Sân bay quốc tế Cam Ranh (Cam Ranh International Airport)",
    "latitude": "11.9981",
    "longitude": "109.2196"
  },
  {
    "code": "PQC",
    "city": "Phú Quốc",
    "name": "Sân bay quốc tế Phú Quốc (Phu Quoc International Airport)",
    "latitude": "10.227",
    "longitude": "103.967"
  },
  {
    "code": "HPH",
    "city": "Hải Phòng",
    "name": "Sân bay quốc tế Cát Bi (Cat Bi International Airport)",
    "latitude": "20.8325",
    "longitude": "106.7247"
  },
  {
    "code": "VCA",
    "city": "Cần Thơ",
    "name": "Sân bay quốc tế Cần Thơ (Can Tho International Airport)",
    "latitude": "10.085",
    "longitude": "105.711"
  },
  {
    "code": "HUI",
    "city": "Huế",
    "name": "Sân bay quốc tế Phú Bài (Phu Bai International Airport)",
    "latitude": "16.399",
    "longitude": "107.702"
  },
  {
    "code": "VDO",
    "city": "Quảng Ninh",
    "name": "Sân bay quốc tế Vân Đồn (Van Don International Airport)",
    "latitude": "21.2224",
    "longitude": "107.1974"
  },
  {
    "code": "DLI",
    "city": "Đà Lạt",
    "name": "Sân bay Liên Khương (Lien Khuong Airport)",
    "latitude": "11.75",
    "longitude": "108.367"
  }
]
